[
  {
    "id": "1107569559405155",
    "name": "Punta Arenas, Chile - Patagonia",
    "location": {
      "city": "Punta Arenas",
      "country": "Chile",
      "latitude": -53.160406609066,
      "longitude": -70.915355324507
    },
    "link": "https://www.facebook.com/1107569556071822",
    "checkins": 19383
  },
  {
    "id": "1720666751565872",
    "name": "Sriracha Arena Sports Club แหลมฉบัง ศรีราชา",
    "location": {
      "city": "Si Racha",
      "country": "Thailand",
      "latitude": 13.128474278909,
      "longitude": 100.91847928091,
      "street": "888 Moo.6 Sukumvit.Road Thungsukla",
      "zip": "20230"
    },
    "link": "https://www.facebook.com/1409227812709769",
    "checkins": 16573
  },
  {
    "id": "571219149884190",
    "name": "JUMP ARENA Bordeaux",
    "location": {
      "city": "Bègles",
      "country": "France",
      "latitude": 44.787492907664,
      "longitude": -0.53688168525696,
      "street": "Zone des Rives d'Arcins, Chemin de Courrejean",
      "zip": "33130"
    },
    "link": "https://www.facebook.com/571219096550862",
    "checkins": 1183
  },
  {
    "id": "693462427437257",
    "name": "Paso de la Arena",
    "location": {
      "city": "Paso de la Arena",
      "country": "Uruguay",
      "latitude": -34.8390566023,
      "longitude": -56.2722440701,
      "zip": "12700"
    },
    "link": "https://www.facebook.com/392299084220261",
    "checkins": 35958
  },
  {
    "id": "153968864786939",
    "name": "Fashion Arena Prague Outlet",
    "location": {
      "city": "Prague",
      "country": "Czech Republic",
      "latitude": 50.074934478,
      "longitude": 14.538948949,
      "street": "Zamenhofova 440 (Průmyslová)",
      "zip": "10800"
    },
    "link": "https://www.facebook.com/153968834786942",
    "checkins": 34172
  },
  {
    "id": "215683495127532",
    "name": "Punta Arenas, Chile",
    "location": {
      "city": "Punta Arenas",
      "country": "Chile",
      "latitude": -53.1667,
      "longitude": -70.9333
    },
    "link": "https://www.facebook.com/109892805706602",
    "checkins": 844324
  },
  {
    "id": "117812606613484",
    "name": "Arena Garden Street Food Market",
    "location": {
      "city": "Kraków",
      "country": "Poland",
      "latitude": 50.0676,
      "longitude": 19.99067,
      "street": "Stanisława Lema 7",
      "zip": "31-571"
    },
    "link": "https://www.facebook.com/100738998320845",
    "checkins": 176
  },
  {
    "id": "10150165375696583",
    "name": "Motorsport Arena Oschersleben",
    "location": {
      "city": "Oschersleben",
      "country": "Germany",
      "latitude": 52.027007476641,
      "longitude": 11.278223430231,
      "street": "Motopark Allee 20-22",
      "zip": "39387"
    },
    "link": "https://www.facebook.com/162057131582",
    "checkins": 140465
  },
  {
    "id": "1089330764444867",
    "name": "PhilSports Arena",
    "location": {
      "city": "Pasig",
      "country": "Philippines",
      "latitude": 14.5775,
      "longitude": 121.066111
    },
    "link": "https://www.facebook.com/123786410999312",
    "checkins": 42461
  },
  {
    "id": "393769647768332",
    "name": "Kickoff Arena",
    "location": {
      "city": "Hat Yai",
      "country": "Thailand",
      "latitude": 6.9832333708906,
      "longitude": 100.47881126404,
      "street": "อำเภอหาดใหญ่",
      "zip": "90110"
    },
    "link": "https://www.facebook.com/393769644434999",
    "checkins": 26604
  },
  {
    "id": "158317337514467",
    "name": "Allianz Arena",
    "location": {
      "city": "Munich",
      "country": "Germany",
      "latitude": 48.21878,
      "longitude": 11.62362,
      "street": "Werner-Heisenberg-Allee 25",
      "zip": "80939"
    },
    "link": "https://www.facebook.com/158317327514468",
    "checkins": 1574845
  },
  {
    "id": "10150090399297517",
    "name": "The SSE Arena, Wembley",
    "location": {
      "city": "Wembley",
      "country": "United Kingdom",
      "latitude": 51.558164039711,
      "longitude": -0.28237114001189,
      "street": "Arena Square, Engineers Way",
      "zip": "HA9 0AA"
    },
    "link": "https://www.facebook.com/105178062516",
    "checkins": 1090093
  },
  {
    "id": "106756246155355",
    "name": "Puerto Armuelles, Cuidad De Las Arenas",
    "location": {
      "city": "David",
      "country": "Panama",
      "latitude": 8.42586100532,
      "longitude": -82.4342850014
    },
    "link": "https://www.facebook.com/106756226155357",
    "checkins": 12876
  },
  {
    "id": "1716947631721637",
    "name": "Arena da Moda",
    "location": {
      "city": "Duque de Caxias",
      "country": "Brazil",
      "latitude": -22.752655716765,
      "longitude": -43.286733627319,
      "state": "RJ",
      "street": "Rod. Washington Luiz, 6456",
      "zip": "25065-007"
    },
    "link": "https://www.facebook.com/1716947625054971",
    "checkins": 1871
  },
  {
    "id": "541306665908315",
    "name": "SWAY",
    "location": {
      "city": "Bangkok",
      "country": "Thailand",
      "latitude": 13.732070021,
      "longitude": 100.585206223,
      "street": "Thonglor 10, Arena 10",
      "zip": "10110"
    },
    "link": "https://www.facebook.com/541306629241652",
    "checkins": 81778
  },
  {
    "id": "1701373946603512",
    "name": "Arena Petry",
    "location": {
      "city": "São José",
      "country": "Brazil",
      "latitude": -23.885837699862,
      "longitude": -47.8125,
      "state": "SC",
      "street": "Rod. SC 281, 4000",
      "zip": "88122001"
    },
    "link": "https://www.facebook.com/1700129256727981",
    "checkins": 4756
  },
  {
    "id": "10150565706960366",
    "name": "Arena Mall Budapest",
    "location": {
      "city": "Budapest",
      "country": "Hungary",
      "latitude": 47.498249855914,
      "longitude": 19.090315902258,
      "street": "Kerepesi út 9.",
      "zip": "1087"
    },
    "link": "https://www.facebook.com/300429935365",
    "checkins": 218527
  },
  {
    "id": "179019056078610",
    "name": "WB Arena",
    "location": {
      "city": "Phnom Penh",
      "country": "Cambodia",
      "latitude": 11.509960746512,
      "longitude": 104.93765165707,
      "street": "National Road 2",
      "zip": "12345"
    },
    "link": "https://www.facebook.com/179019052745277",
    "checkins": 5124
  },
  {
    "id": "3036249516601050",
    "name": "Arena Carnaval SP",
    "location": {
      "city": "São Paulo",
      "country": "Brazil",
      "latitude": -23.51399,
      "longitude": -46.6338099,
      "state": "SP",
      "street": "Av. Olavo Fontoura, 1209",
      "zip": "02009-020"
    },
    "link": "https://www.facebook.com/2739493526276652",
    "checkins": 1654
  },
  {
    "id": "721062544592206",
    "name": "Arena Park Residencial Condomínio Resort",
    "location": {
      "city": "Rio de Janeiro",
      "country": "Brazil",
      "latitude": -22.885965178396,
      "longitude": -43.2907650209,
      "state": "RJ",
      "street": "Av. Dom Hélder Câmara, 6001",
      "zip": "20771-002"
    },
    "link": "https://www.facebook.com/648718875159907",
    "checkins": 72737
  },
  {
    "id": "1088281841204916",
    "name": "Arena Centar",
    "location": {
      "city": "Zagreb",
      "country": "Croatia",
      "latitude": 45.770889506885,
      "longitude": 15.94011345647,
      "street": "Vice Vukova 6",
      "zip": "10000"
    },
    "link": "https://www.facebook.com/124411897591920",
    "checkins": 99992
  },
  {
    "id": "223668754314210",
    "name": "Las Arenas, Pais Vasco, Spain",
    "location": {
      "city": "Las Arenas",
      "country": "Spain",
      "latitude": 43.327961453827,
      "longitude": -3.010106881712
    },
    "link": "https://www.facebook.com/113712408643179",
    "checkins": 31860
  },
  {
    "id": "1723865077915394",
    "name": "Арена Львів/ Arena Lviv",
    "location": {
      "city": "Lviv",
      "country": "Ukraine",
      "latitude": 49.774779307338,
      "longitude": 24.02765750885,
      "street": "вулиця Стрийська, 199",
      "zip": "79031"
    },
    "link": "https://www.facebook.com/1723865064582062",
    "checkins": 42979
  },
  {
    "id": "1461438924083880",
    "name": "Major Arena มหาสารคาม สนามฟุตบอลหญ้าเทียมในร่ม",
    "location": {
      "city": "Amphoe Muang Maha Sarakham",
      "country": "Thailand",
      "latitude": 16.2134065,
      "longitude": 103.277586,
      "street": "232 ต.เกิ้ง อ.เมือง จ.มหาสารคาม",
      "zip": "44000"
    },
    "link": "https://www.facebook.com/1461176450776794",
    "checkins": 34451
  },
  {
    "id": "106996857347677",
    "name": "Carpentiere Arena",
    "location": {
      "city": "Rasinari",
      "country": "Romania",
      "latitude": 45.705310165402,
      "longitude": 24.036219120026,
      "street": "Valea Stezii FN",
      "zip": "557200"
    },
    "link": "https://www.facebook.com/106996850681011",
    "checkins": 731
  },
  {
    "id": "388721331857801",
    "name": "2S SPORT ARENA",
    "location": {
      "city": "Chiang Mai",
      "country": "Thailand",
      "latitude": 18.765869613361,
      "longitude": 98.982824986945,
      "street": "สนามหญ้าเทียม 2S SPORT ARENA"
    },
    "link": "https://www.facebook.com/375715559825045",
    "checkins": 8895
  },
  {
    "id": "208810902474907",
    "name": "La Arena, Piura, Peru",
    "location": {
      "city": "La Arena",
      "country": "Peru",
      "latitude": -5.3458,
      "longitude": -80.7088799
    },
    "link": "https://www.facebook.com/108684092487589",
    "checkins": 51128
  },
  {
    "id": "243450796125456",
    "name": "Hy-Vee Arena",
    "location": {
      "city": "Kansas City",
      "country": "United States",
      "latitude": 39.091788112402,
      "located_in": "622752131078840",
      "longitude": -94.605863483157,
      "state": "MO",
      "street": "1800 Genessee Street",
      "zip": "64102"
    },
    "link": "https://www.facebook.com/243439166126619",
    "checkins": 19751
  },
  {
    "id": "220962241264145",
    "name": "General Arenales, Buenos Aires",
    "location": {
      "city": "General Arenales",
      "country": "Argentina",
      "latitude": -34.30226,
      "longitude": -61.30468,
      "zip": "B 6005"
    },
    "link": "https://www.facebook.com/109533249073712",
    "checkins": 50892
  },
  {
    "id": "432058186839074",
    "name": "Nigerian Army Shopping Arena, Bolade. Oshodi Lagos",
    "location": {
      "city": "Oshodi",
      "country": "Nigeria",
      "latitude": 6.564351,
      "longitude": 3.349459,
      "street": "Bolade, Oshod"
    },
    "link": "https://www.facebook.com/432058166839076",
    "checkins": 67779
  },
  {
    "id": "629917543701045",
    "name": "Pula Arena",
    "location": {
      "city": "Pula",
      "country": "Croatia",
      "latitude": 44.873046678129,
      "longitude": 13.849703703545
    },
    "link": "https://www.facebook.com/140803812612423",
    "checkins": 60841
  },
  {
    "id": "210419275647601",
    "name": "Arenápolis",
    "location": {
      "city": "Arenápolis",
      "country": "Brazil",
      "latitude": -14.50576125963,
      "longitude": -56.859511758386,
      "state": "MT"
    },
    "link": "https://www.facebook.com/108062295883300",
    "checkins": 61419
  },
  {
    "id": "703881183299479",
    "name": "Mega Store Punta Arenas",
    "location": {
      "city": "Punta Arenas",
      "country": "Chile",
      "latitude": -53.130867327806,
      "longitude": -70.874764610068,
      "street": "Manzana 19",
      "zip": "6200000"
    },
    "link": "https://www.facebook.com/157769541243982",
    "checkins": 1147
  },
  {
    "id": "109349650527712",
    "name": "Sárvár Aréna",
    "location": {
      "city": "Sárvár",
      "country": "Hungary",
      "latitude": 47.249860515238,
      "longitude": 16.929743734723,
      "street": "Nádasdy Ferenc út 30.",
      "zip": "9600"
    },
    "link": "https://www.facebook.com/109349647194379",
    "checkins": 999
  },
  {
    "id": "433893090015106",
    "name": "Johan Cruijff ArenA",
    "location": {
      "city": "Amsterdam",
      "country": "Netherlands",
      "latitude": 52.313866451107,
      "longitude": 4.9420479473446,
      "street": "Arena Amsterdam",
      "zip": "1101 xj"
    },
    "link": "https://www.facebook.com/111042545633497",
    "checkins": 1209181
  },
  {
    "id": "1081219405254502",
    "name": "Mistico Arenal Hanging Bridges Park",
    "location": {
      "city": "La Fortuna",
      "country": "Costa Rica",
      "latitude": 10.488067571934,
      "longitude": -84.753710352246,
      "street": "Entrada por camino de adoquines junto a la represa del Lago Arenal en La Fortuna de San Carlos.",
      "zip": "21007"
    },
    "link": "https://www.facebook.com/765748390134940",
    "checkins": 34857
  },
  {
    "id": "1026324317391501",
    "name": "MOL Aréna",
    "location": {
      "city": "Dunajská Streda",
      "country": "Slovakia",
      "latitude": 47.99888889,
      "longitude": 17.61833333
    },
    "link": "https://www.facebook.com/142407375783204",
    "checkins": 31812
  },
  {
    "id": "221320334544710",
    "name": "El Arenal, Jalisco",
    "location": {
      "city": "El Arenal",
      "country": "Mexico",
      "latitude": 20.77652,
      "longitude": -103.69454,
      "zip": "45350"
    },
    "link": "https://www.facebook.com/113467131996698",
    "checkins": 73052
  },
  {
    "id": "1497649703614492",
    "name": "The Diamond Arena สนามหญ้าเทียมมาตรฐานสากล ใจกลางเมืองนครฯ",
    "location": {
      "city": "Nakhon Si Thammarat",
      "country": "Thailand",
      "latitude": 8.3897665371275,
      "longitude": 99.97013766927
    },
    "link": "https://www.facebook.com/1497649696947826",
    "checkins": 25664
  },
  {
    "id": "449898508780951",
    "name": "Focus Arena - CIZE Esports",
    "location": {
      "city": "Amphoe Muang Khon Kaen",
      "country": "Thailand",
      "latitude": 16.455867485284,
      "longitude": 102.83356547356,
      "street": "168/8 ม.14 ถ.มิตรภาพ ต.ในเมือง อ.เมือง จ.ขอนแก่น",
      "zip": "40000"
    },
    "link": "https://www.facebook.com/355295491574587",
    "checkins": 2489
  },
  {
    "id": "1318890268127539",
    "name": "Arenal d'en Castell",
    "location": {
      "city": "Fornells",
      "country": "Spain",
      "latitude": 40.020737253701,
      "longitude": 4.1817360185087
    },
    "link": "https://www.facebook.com/143689045647673",
    "checkins": 26299
  },
  {
    "id": "10155579628485767",
    "name": "Rich Vera -The Center Arena",
    "location": {
      "city": "Orlando",
      "country": "United States",
      "latitude": 28.54118,
      "longitude": -81.47598,
      "state": "FL",
      "street": "10 S. Hiawassee Rd",
      "zip": "32835"
    },
    "link": "https://www.facebook.com/126658160766",
    "checkins": 288
  },
  {
    "id": "332008946887745",
    "name": "Ülker Sports Arena",
    "location": {
      "city": "Istanbul",
      "country": "Turkey",
      "latitude": 40.992755982222,
      "longitude": 29.105036258698,
      "street": "Barbaros Mah. Ihlamur Sok. Batı Ataşehir"
    },
    "link": "https://www.facebook.com/187786537976654",
    "checkins": 257097
  },
  {
    "id": "1476319655929822",
    "name": "Boutique Arena",
    "location": {
      "city": "Ruse",
      "country": "Bulgaria",
      "latitude": 43.8470566206,
      "longitude": 25.951897489514
    },
    "link": "https://www.facebook.com/1463453597216428",
    "checkins": 1442
  },
  {
    "id": "869481799874088",
    "name": "Ais Contact Center Development & Training Arena",
    "location": {
      "city": "Ban Khok Kruat",
      "country": "Thailand",
      "latitude": 14.92190506676,
      "longitude": 101.95166052143,
      "zip": "30280"
    },
    "link": "https://www.facebook.com/869481793207422",
    "checkins": 17090
  },
  {
    "id": "564855700279250",
    "name": "Antel Arena",
    "location": {
      "city": "Montevideo",
      "country": "Uruguay",
      "latitude": -34.863003092857,
      "longitude": -56.153616657143,
      "street": "Av. Dámaso Antonio Larrañaga 4001",
      "zip": "12000"
    },
    "link": "https://www.facebook.com/564855673612586",
    "checkins": 50938
  },
  {
    "id": "632072613885222",
    "name": "Arena Hotel DHA Multan",
    "location": {
      "city": "Multan",
      "country": "Pakistan",
      "latitude": 30.29378245827,
      "longitude": 71.506736394456,
      "street": "DHA, Bosan Road",
      "zip": "60000"
    },
    "link": "https://www.facebook.com/632072527218564",
    "checkins": 8723
  },
  {
    "id": "991794927634619",
    "name": "Major Arena สนามฟุตบอลหญ้าเทียมในร่ม ขอนแก่น",
    "location": {
      "city": "Khon Kaen",
      "country": "Thailand",
      "latitude": 16.405806596197,
      "longitude": 102.82273750242,
      "street": "162/202 ถ.เหล่านาดี ต.ในเมือง อ.เมือง",
      "zip": "40000"
    },
    "link": "https://www.facebook.com/991794924301286",
    "checkins": 7389
  },
  {
    "id": "372702296438150",
    "name": "BOWIN ARENA บ่อวิน อารีน่า",
    "location": {
      "city": "Amphoe Si Racha",
      "country": "Thailand",
      "latitude": 13.034056231837,
      "longitude": 101.11603975296,
      "street": "Unnamed Road, \\u0E15\\u0E33\\u0E1A\\u0E25 \\u0E1A\\u0E48\\u0E2D\\u0E27\\u0E34\\u0E19",
      "zip": "20230"
    },
    "link": "https://www.facebook.com/372702273104819",
    "checkins": 68603
  },
  {
    "id": "199919883376688",
    "name": "Loma De Arena, Bolivar, Colombia",
    "location": {
      "city": "Loma de Arena",
      "country": "Colombia",
      "latitude": 10.7333,
      "longitude": -75.2667
    },
    "link": "https://www.facebook.com/104929542875723",
    "checkins": 18784
  },
  {
    "id": "1400905796635895",
    "name": "BayArena",
    "location": {
      "city": "Leverkusen",
      "country": "Germany",
      "latitude": 51.037843010977,
      "longitude": 7.0022131112648,
      "street": "Bismarckstraße 122-124",
      "zip": "51373"
    },
    "link": "https://www.facebook.com/114108265315661",
    "checkins": 101288
  },
  {
    "id": "10150703765373666",
    "name": "Zillertal Arena",
    "location": {
      "city": "Zell am Ziller",
      "country": "Austria",
      "latitude": 47.237404007905,
      "longitude": 11.8995112256,
      "street": "Rohr 23",
      "zip": "6280"
    },
    "link": "https://www.facebook.com/154233653665",
    "checkins": 115689
  },
  {
    "id": "1538118089580208",
    "name": "台北小巨蛋 Taipei Arena",
    "location": {
      "city": "Taipei",
      "country": "Taiwan",
      "latitude": 25.05135,
      "longitude": 121.54957,
      "street": "No. 2, Section 4, Nanjing East Road, Songshan District, Taipei City, Taiwan 105",
      "zip": "10553"
    },
    "link": "https://www.facebook.com/1538118079580209",
    "checkins": 306365
  },
  {
    "id": "642643982475627",
    "name": "Arenas de Barcelona",
    "location": {
      "city": "Barcelona",
      "country": "Spain",
      "latitude": 41.376322361065,
      "located_in": "930721890302320",
      "longitude": 2.1492499323509,
      "street": "Gran Via de les Corts Catalanes núm. 373-385",
      "zip": "08015"
    },
    "link": "https://www.facebook.com/386130751460286",
    "checkins": 169297
  },
  {
    "id": "209193339102859",
    "name": "El Arenal, Islas Baleares, Spain",
    "location": {
      "city": "El Arenal",
      "country": "Spain",
      "latitude": 39.5,
      "longitude": 2.75
    },
    "link": "https://www.facebook.com/108874785801382",
    "checkins": 85566
  },
  {
    "id": "291287334414473",
    "name": "Future Arena",
    "location": {
      "city": "Bangkok",
      "country": "Thailand",
      "latitude": 13.992113040869,
      "longitude": 100.61957091093,
      "street": "\\u0E1F\\u0E34\\u0E27\\u0E40\\u0E08\\u0E2D\\u0E23\\u0E4C\\u0E1E\\u0E32\\u0E23\\u0E4C\\u0E04 \\u0E23\\u0E31\\u0E07\\u0E2A\\u0E34\\u0E15",
      "zip": "12130"
    },
    "link": "https://www.facebook.com/287868914756315",
    "checkins": 43725
  },
  {
    "id": "971898099499843",
    "name": "Lorenzo Arenas",
    "location": {
      "city": "Concepción",
      "country": "Chile",
      "latitude": -36.81111111,
      "longitude": -73.07277778
    },
    "link": "https://www.facebook.com/157234214299573",
    "checkins": 18089
  },
  {
    "id": "1839603706305365",
    "name": "Cabañas vicente reyes, Punta Arenas",
    "location": {
      "city": "Punta Arenas",
      "country": "Chile",
      "latitude": -53.151716404187,
      "longitude": -70.891958897418,
      "street": "vicente reyes 979",
      "zip": "6200000"
    },
    "link": "https://www.facebook.com/1835352606730475",
    "checkins": 86
  },
  {
    "id": "1287453161384852",
    "name": "Computer Arena Cambodia",
    "location": {
      "city": "Phnom Penh",
      "country": "Cambodia",
      "latitude": 11.559274761221,
      "located_in": "295296947161989",
      "longitude": 104.89138036966,
      "street": "Cambodia",
      "zip": "#4BC, Street 265, Teuk L'AK TI 3, Khan Toul Kork, Phnom Penh Cambodia"
    },
    "link": "https://www.facebook.com/1066991816764322",
    "checkins": 101
  },
  {
    "id": "10150181711342098",
    "name": "Utilita Arena Birmingham",
    "location": {
      "city": "Birmingham",
      "country": "United Kingdom",
      "latitude": 52.479633686156,
      "longitude": -1.9145397062892,
      "zip": "B1 2AA"
    },
    "link": "https://www.facebook.com/36425807097",
    "checkins": 1180446
  },
  {
    "id": "103744241285506",
    "name": "Terrazza Arena Club",
    "location": {
      "city": "Wavre",
      "country": "Belgium",
      "latitude": 50.72884,
      "longitude": 4.59048,
      "street": "Avenue Pasteur 2A",
      "zip": "1300"
    },
    "link": "https://www.facebook.com/103656971294233",
    "checkins": 332
  },
  {
    "id": "895032870834747",
    "name": "Jump arena thảo điền",
    "location": {
      "city": "Ho Chi Minh City",
      "country": "Vietnam",
      "latitude": 10.801011913518,
      "longitude": 106.73599646447
    },
    "link": "https://www.facebook.com/895032867501414",
    "checkins": 564
  },
  {
    "id": "818518331683186",
    "name": "MAX Arena - O templo do Esport",
    "location": {
      "city": "São Paulo",
      "country": "Brazil",
      "latitude": -23.5545,
      "longitude": -46.60955,
      "state": "SP",
      "street": "R DA MOOCA 1601",
      "zip": "03103-003"
    },
    "link": "https://www.facebook.com/818142268387459",
    "checkins": 14970
  },
  {
    "id": "111980603880443",
    "name": "arena FICO",
    "location": {
      "city": "Bologna",
      "country": "Italy",
      "latitude": 44.51527,
      "longitude": 11.40853,
      "street": "Via Paolo Canali 8",
      "zip": "40100"
    },
    "link": "https://www.facebook.com/111980600547110",
    "checkins": 45
  },
  {
    "id": "647058322007947",
    "name": "Žalgirio arena",
    "location": {
      "city": "Kaunas",
      "country": "Lithuania",
      "latitude": 54.890431176266,
      "longitude": 23.914940357208,
      "street": "Karaliaus Mindaugo prospektas 50",
      "zip": "44334"
    },
    "link": "https://www.facebook.com/102931049754013",
    "checkins": 249382
  },
  {
    "id": "221035637910075",
    "name": "Filborna Arena",
    "location": {
      "city": "Helsingborg",
      "country": "Sweden",
      "latitude": 56.055897314527,
      "longitude": 12.732591404746,
      "street": "Filbornavägen 105",
      "zip": "256 61"
    },
    "link": "https://www.facebook.com/113230068690633",
    "checkins": 85776
  },
  {
    "id": "1918705838161293",
    "name": "Spark Arena",
    "location": {
      "city": "Auckland",
      "country": "New Zealand",
      "latitude": -36.84712700621,
      "longitude": 174.77670401599,
      "street": "42 Mahuhu Crescent",
      "zip": "1010"
    },
    "link": "https://www.facebook.com/213868508645043",
    "checkins": 236549
  },
  {
    "id": "491370640891385",
    "name": "Arena das Dunas",
    "location": {
      "city": "Natal",
      "country": "Brazil",
      "latitude": -5.8267315438381,
      "longitude": -35.212417030082,
      "state": "RN",
      "street": "Av. Prudente de Morais, 5121 - Lagoa Nova",
      "zip": "59022-400"
    },
    "link": "https://www.facebook.com/491370590891390",
    "checkins": 344141
  },
  {
    "id": "10150482913157824",
    "name": "高雄巨蛋(K-ARENA)",
    "location": {
      "city": "Kaohsiung",
      "country": "Taiwan",
      "latitude": 22.668620376181,
      "longitude": 120.3018862009,
      "street": "高雄市左營區博愛二路757號",
      "zip": "81355"
    },
    "link": "https://www.facebook.com/251465022823",
    "checkins": 532270
  },
  {
    "id": "451365541601122",
    "name": "Centro Comercial Las Arenas",
    "location": {
      "city": "Las Palmas de Gran Canaria",
      "country": "Spain",
      "latitude": 28.128666075439,
      "longitude": -15.44851112822,
      "street": "Carretera del Rincón, s/n",
      "zip": "35010"
    },
    "link": "https://www.facebook.com/172572586147087",
    "checkins": 45435
  },
  {
    "id": "552420664833952",
    "name": "Stadion Alianz Arena",
    "location": {
      "city": "Munich",
      "country": "Germany",
      "latitude": 48.219510335172,
      "located_in": "158317337514467",
      "longitude": 11.62439768936,
      "street": "Werner-Heisenberg-Allee 25",
      "zip": "80939"
    },
    "link": "https://www.facebook.com/454494767959876",
    "checkins": 67798
  },
  {
    "id": "669253899788900",
    "name": "Playa de Las Arenas de Valencia",
    "location": {
      "city": "Valencia",
      "country": "Spain",
      "latitude": 39.464856076708,
      "longitude": -0.32308156149093,
      "street": "Paseo de Neptuno",
      "zip": "46011"
    },
    "link": "https://www.facebook.com/126703064043989",
    "checkins": 51461
  },
  {
    "id": "1049427858421097",
    "name": "Арена Античен Театър Пловдив/ Arena Ancient Theater  Plovdiv",
    "location": {
      "city": "Plovdiv",
      "country": "Bulgaria",
      "latitude": 42.147022981028,
      "longitude": 24.751406013966,
      "street": "12 Zar Ivajlo",
      "zip": "4000"
    },
    "link": "https://www.facebook.com/1049427818421101",
    "checkins": 16888
  },
  {
    "id": "641077706085531",
    "name": "Platja de S'Arenal - Palma de Mallorca",
    "location": {
      "city": "Palma de Mallorca",
      "country": "Spain",
      "latitude": 39.514244833222,
      "longitude": 2.7470135950249
    },
    "link": "https://www.facebook.com/641077699418865",
    "checkins": 13845
  },
  {
    "id": "212105495486775",
    "name": "Arena di Verona",
    "location": {
      "city": "Verona",
      "country": "Italy",
      "latitude": 45.439089838815,
      "longitude": 10.994267463684,
      "street": "Piazza Brà, 1",
      "zip": "37121"
    },
    "link": "https://www.facebook.com/122773951086597",
    "checkins": 1977694
  }
]
